{
  "type": "FeatureCollection",
  "features": [{
    "type": "Feature",
    "properties": {
      "marker-color": "#f55",
      "marker-size": "medium",
      "name": "Paris"
    },
    "geometry": {
      "type": "Point",
      "coordinates": [ 2.3522219000000177, 48.85661400000001 ]
    }
  }, {
  "type": "Feature",
    "properties": {
      "marker-color": "#f55",
      "marker-size": "medium",
      "name": "Tallinn"
    },
    "geometry": {
      "type": "Point",
      "coordinates": [ 24.753574, 59.436962 ]
    }
  }, {
    "type": "Feature",
    "properties": {
      "marker-color": "#f55",
      "marker-size": "medium",
      "name": "St Petersburg"
    },
    "geometry": {
      "type": "Point",
      "coordinates": [ 30.335099, 59.934280 ]
    }
  }, {
    "type": "Feature",
    "properties": {
      "marker-color": "#f55",
      "marker-size": "medium",
      "name": "Moscow"
    },
    "geometry": {
      "type": "Point",
      "coordinates": [ 37.6173, 55.755826 ]
    }
  }, {
    "type": "Feature",
    "properties": {
      "marker-color": "#f55",
      "marker-size": "medium",
      "name": "Ulaanbaatar"
    },
    "geometry": {
      "type": "Point",
      "coordinates": [ 106.90574390000006, 47.88639879999999 ]
    }
  }, {
    "type": "Feature",
    "properties": {
      "marker-color": "#f55",
      "marker-size": "medium",
      "name": "Beijing"
    },
    "geometry": {
      "type": "Point",
      "coordinates": [ 116.40739499999997, 39.904211 ]
    }
  }, {
    "type": "Feature",
    "properties": {
      "marker-color": "#f55",
      "marker-size": "medium",
      "name": "Seoul"
    },
    "geometry": {
      "type": "Point",
      "coordinates": [ 126.97796919999998, 37.566535 ]
    }
  }, {
    "type": "Feature",
    "properties": {
      "marker-color": "#f55",
      "marker-size": "medium",
      "name": "Tokyo"
    },
    "geometry": {
      "type": "Point",
      "coordinates": [ 139.69170639999993, 35.6894875 ]
    }
  }, {
    "type": "Feature",
    "properties": {
      "marker-color": "#f55",
      "marker-size": "medium",
      "name": "Kyoto"
    },
    "geometry": {
      "type": "Point",
      "coordinates": [ 135.76802939999993, 35.01163629999999 ]
    }
  }, {
    "type": "Feature",
    "properties": {
      "marker-color": "#f55",
      "marker-size": "medium",
      "name": "Hong Kong"
    },
    "geometry": {
      "type": "Point",
      "coordinates": [ 114.10949700000003, 22.396428 ]
    }
  }, {
    "type": "Feature",
    "properties": {
      "marker-color": "#f55",
      "marker-size": "medium",
      "name": "Hanoi"
    },
    "geometry": {
      "type": "Point",
      "coordinates": [ 105.83415979999997, 21.0277644 ]
    }
  }, {
    "type": "Feature",
    "properties": {
      "marker-color": "#f55",
      "marker-size": "medium",
      "name": "Bangkok"
    },
    "geometry": {
      "type": "Point",
      "coordinates": [ 100.50176510000006, 13.7563309 ]
    }
  }, {
    "type": "Feature",
    "properties": {
      "marker-color": "#f55",
      "marker-size": "medium",
      "name": "Yangon"
    },
    "geometry": {
      "type": "Point",
      "coordinates": [ 96.19513200000006, 16.8660694 ]
    }
  }, {
    "type": "Feature",
    "properties": {
      "marker-color": "#f55",
      "marker-size": "medium",
      "name": "Old Bagan"
    },
    "geometry": {
      "type": "Point",
      "coordinates": [ 94.8585458, 21.1717271 ]
    }
  }, {
    "type": "Feature",
    "properties": {
      "marker-color": "#f55",
      "marker-size": "medium",
      "name": "Phnom Penh"
    },
    "geometry": {
      "type": "Point",
      "coordinates": [ 104.89216680000004, 11.5448729 ]
    }
  }, {
    "type": "Feature",
    "properties": {
      "marker-color": "#f55",
      "marker-size": "medium",
      "name": "Bali"
    },
    "geometry": {
      "type": "Point",
      "coordinates": [ 115.09195090000003, -8.3405389 ]
    }
  }
]}
